GPS_TIME (ms),LONG (deg),LAT (deg),ELEV (m),SPEED (m/s),SATELLITE_COUNT,GPS_ACCURACY (m),GPS_QUALITY,GNSS_POSITION_VALIDITY,SYSTEM_TIME (ms),DEVICE_TEMPERATURE (°C),DEVICE_BATTERY_TEMPERATURE (°C),RECORDED_SAMPLE_COUNT,ACCEL_X (m/s^2),ACCEL_Y (m/s^2),ACCEL_Z (m/s^2),PITCH_RATE (rad/s),ROLL_RATE (rad/s),YAW_RATE (rad/s),PITCH (rad),ROLL (rad),RPM,THROTTLE (%),BRAKES (kPa),STEERING (deg),COOLANT_TEMPERATURE (°C),FUEL_LEVEL (L),WHEEL_SPEED_FL (m/s),WHEEL_SPEED_FR (m/s),WHEEL_SPEED_RL (m/s),WHEEL_SPEED_RR (m/s),MATH_GRID_X,MATH_GRID_Y,MATH_GRID_Z,MATH_GRID_X_DELTA,MATH_GRID_Y_DELTA,MATH_GRID_X_SPEED,MATH_GRID_Y_SPEED,MATH_GRID_X_ACCEL,MATH_GRID_Y_ACCEL,MATH_DISTANCE_FROM_PREV,MATH_ELAPSED_DISTANCE,MATH_CALC_SPEED,MATH_GNSS_SPEED_LAG,MATH_RADIUS,MATH_RADIUS_DIFFERENTIAL,MATH_TURN_NUMBER,MATH_TURN_NUMBER_BRAKE,MATH_TURN_NUMBER_ENTRY,MATH_TURN_NUMBER_EXIT,MATH_DETECTED_RADIUS,MATH_TURN_CENTER_X,MATH_TURN_CENTER_Y,MATH_TURN_DIRECTION,MATH_HEADING,MATH_ACCEL_2D_SUM,MATH_THROTTLE_DIFFERENTIAL,MATH_ELAPSED_TIME,MATH_DELTA_TIME,MATH_DELTA_TIME_DIFFERENTIAL,MATH_DELTA_DISTANCE,MATH_DELTA_DISTANCE_DIFFERENTIAL,MATH_SAMPLE_COUNT,MATH_SAMPLE_PERIOD,MATH_CALC_ACCEL_X,MATH_CALC_ACCEL_Y,MATH_CALC_ACCEL_2D_SUM,MATH_ACCEL_X_QUALITY,MATH_ACCEL_Y_QUALITY,MATH_FILTER_PITCH,MATH_FILTER_ROLL,MATH_ELAPSED_DISTANCE_NORMALIZED,MATH_RPM_SPEED_RATIO,MATH_RPM_SPEED_RATIO_STD_DEV,MATH_RPM_SPEED_RATIO_STD_DEV_GEAR_CHANGE_TH,MATH_CALC_GEAR_CHANGE,MATH_GEAR_NUMBER,MATH_AVG_TIRE_TEMPERATURE_FL,MATH_AVG_TIRE_TEMPERATURE_FR,MATH_AVG_TIRE_TEMPERATURE_RL,MATH_AVG_TIRE_TEMPERATURE_RR,MATH_LAP_NUMBER,MATH_LAP_ELAPSED_TIME,MATH_SECTOR_NUMBER,MATH_SECTOR_ELAPSED_TIME,MATH_USER_DEFINED_1,MATH_USER_DEFINED_2,MATH_USER_DEFINED_3,MATH_USER_DEFINED_4
1596474228836.0,-86.72537,36.16901,40.542970702624935,7.677000724203599,16.0,1.61,3.0,1.0,1771261432225.0,0.0,18.0,1.0,0.10034164786338806,-1.6039756536483765,-0.0,0.0,0.0,28.344146728515625,0.0021188813752166793,-0.1635599888095991,1612.0,3.0,0.0,69.7,62.22222222222222,69.0,0.0,0.0,0.0,0.0,87.07256128126686,70.05290274666629,40.7956498945392,0.0,0.0,0.0,0.0,0.0,0.0,0.0,0.0,11.061870410821598,3.384869686617999,0.0,0.0,0.0,0.0,0.0,0.0,0.0,0.0,0.0,0.0,231.08676855558622,1.6071111796614062,0.0,0.0,0.0,0.0,0.0,0.0,1.0,0.0,0.0,0.0,0.0,0.0,0.0,0.0,0.0,0.0,209.97783612521758,0.0,12.598670167513054,0.0,2.0,0.0,0.0,0.0,0.0,2.0,0.0,1.0,0.0,0.0,0.0,0.0,0.0
1596474228936.0,-86.72537,36.169,40.53931310274198,7.717001797097821,16.0,1.77,3.0,1.0,1771261432327.0,0.0,18.0,2.0,0.0258699432015419,-1.6039756536483765,-0.0,0.0,0.0,15.917403221130371,0.002327040432122451,-0.1635599888095991,1592.0,1.0,0.0,19.7,62.22222222222222,69.0,0.0,0.0,0.0,0.0,87.07256128126686,68.94095190927166,40.79199229465625,0.0,-1.111950837394627,0.0,-11.11950837394627,-37.173122182222116,5.892389055705356,1.111950837394627,1.111950837394627,11.11950837394627,3.402506576848448,4.033007041000514,0.04033007041000514,0.0,0.0,0.0,0.0,0.0,-0.4488276355370675,-0.5559754186973134,0.0,231.08676855558622,1.6041842635613863,-3.5147058823529416,100.0,0.0,0.0,0.0,0.0,2.0,100.0,3.8778391477615495,11.363232090385228,12.006693133243335,-3.8519692045600076,-9.759256436736852,0.00020815905690577162,0.0,1.111950837394627,206.29773607137332,2.6022237035182525,12.377864164282398,0.0,2.0,0.0,0.0,0.0,0.0,2.0,100.0,1.0,100.0,0.0,0.0,0.0,0.0
1596474228996.0,-86.72538,36.169,40.54358030260543,7.622001484170339,16.0,1.77,3.0,1.0,1771261432391.0,0.0,18.0,3.0,-0.04781722649931908,-1.6039756536483765,-0.0,0.0,0.0,5.445427417755127,0.0021195289139030343,-0.1635599888095991,1589.0,1.0,0.0,-17.2,62.22222222222222,69.0,0.0,0.0,0.0,0.0,86.17490601019273,68.94095190927166,40.796259494519695,-0.8976552710741351,-1.111950837394627,-14.96092118456892,0.0,-42.32205033140775,0.7759150897755771,0.8976552710741351,2.009606108468762,14.96092118456892,7.33891970039858,358.1781911707071,5.90241973549511,0.0,0.0,0.0,0.0,0.0,0.0,0.0,0.0,270.0,1.6046882515450855,-3.622171945701358,160.0,0.0,0.0,0.0,0.0,3.0,60.0,6.132647077046544,17.508971715193486,18.55191231908595,-6.084829850547225,-15.90499606154511,0.0000006475386863549586,0.0,2.009606108468762,208.4754251622878,1.8503470343210398,12.508525509737266,0.0,2.0,0.0,0.0,0.0,0.0,2.0,160.0,1.0,160.0,0.0,0.0,0.0,0.0
1596474229076.0,-86.72539,36.169,40.54175150266395,7.538999704954089,16.0,1.8,3.0,1.0,1771261432453.0,0.0,18.0,4.0,-0.08701440691947937,-1.6039756536483765,-0.0,0.0,0.0,-9.215338706970215,0.0012636893762737495,-0.1635599888095991,1585.0,1.0,0.0,-71.2,62.22222222222222,69.0,0.0,0.0,0.0,0.0,85.27725073949927,68.94095190927166,40.79443069457822,-1.7953105417675956,-1.111950837394627,-11.220690883668256,0.0,-40.00438626328694,-1.406710043818142,0.8976552706934605,2.9072613791622226,11.220690883668256,3.681691178714167,-108.60158809847256,-5.834747240864746,0.0,0.0,0.0,0.0,0.0,0.0,0.0,0.0,270.0,1.6063341509500086,-3.4920814479638014,240.0,0.0,0.0,0.0,0.0,4.0,80.0,5.662358528508967,16.834157484497215,17.760944859951337,-5.575344121589487,-15.230181830848839,-0.0008551919989429298,0.0,2.9072613791622226,210.2400931198408,1.8089526369736768,12.614405587190447,0.0,2.0,0.0,0.0,0.0,0.0,2.0,240.0,1.0,240.0,0.0,0.0,0.0,0.0
1596474229136.0,-86.7254,36.169,40.54784750246888,7.569000509624755,16.0,1.8,3.0,1.0,1771261432511.0,0.0,18.0,5.0,-0.13091878592967987,-1.6039756536483765,-0.0,0.0,0.0,-21.781709671020508,0.0005301711045331747,-0.1635599888095991,1575.0,1.0,0.0,-103.5,62.22222222222222,69.0,0.0,0.0,0.0,0.0,84.3795954688058,68.94095190927166,40.80052669438315,-2.692965812461051,-1.111950837394627,-14.960921178224256,0.0,-43.706537291790106,-3.3284450871125624,0.8976552706934553,3.804916649855678,14.960921178224256,7.391920668599501,-83.49720540344526,0.41840637825045496,0.0,0.0,0.0,0.0,0.0,0.0,0.0,0.0,270.0,1.6093096737440056,-3.124434389140272,300.0,0.0,0.0,0.0,0.0,5.0,60.0,4.364901121779174,23.585917742721975,23.986410268511552,-4.233982335849494,-21.9819420890736,-0.0015887102706835046,0.0,3.804916649855678,208.0855983557178,1.6173235619957318,12.485135901343067,0.0,2.0,0.0,0.0,0.0,0.0,2.0,300.0,1.0,300.0,0.0,0.0,0.0,0.0
1596474229296.0,-86.72541,36.169,40.545409102546905,7.387001886505673,16.0,1.72,3.0,1.0,1771261432686.0,0.0,18.0,6.0,-0.0831015557050705,-1.6039756536483765,-0.0,0.0,0.0,-33.0914421081543,-0.0012993564856178905,-0.1635599888095991,1588.0,0.0,0.0,-94.2,62.22222222222222,69.0,0.0,0.0,0.0,0.0,83.48194019773169,68.94095190927166,40.798088294461174,-3.590621083535172,-1.111950837394627,-5.610345444213258,0.0,-45.918425619123866,-4.98929004010769,0.8976552710741212,4.702571920929799,5.610345444213258,-1.7766564422924152,-7.242018375683023,0.476594918923514,0.0,0.0,0.0,0.0,0.0,-3.1417934479981113,-2.5050406846259925,0.0,252.14202495826572,1.6061269458101184,-2.5192307692307696,460.0,0.0,0.0,0.0,0.0,6.0,160.0,3.1831814725973318,30.254174692074404,30.421172406500745,-3.1000799168922613,-28.650199038426027,-0.0034182378608345696,0.0,4.702571920929799,214.9721936447458,3.16140575793292,12.898331618684747,0.0,2.0,0.0,0.0,0.0,0.0,2.0,460.0,1.0,460.0,0.0,0.0,0.0,0.0
1596474229376.0,-86.72542,36.169,40.542970702624935,7.364001716630754,16.0,1.72,3.0,1.0,1771261432750.0,0.0,18.0,7.0,-0.04468890652060509,-1.6039756536483765,-0.0,0.0,0.0,-26.668630599975586,-0.0016695144399131304,-0.1635599888095991,1572.0,0.0,0.0,-76.3,62.22222222222222,69.0,0.0,0.0,0.0,0.0,82.88350334996827,68.5703016303759,40.7956498945392,-4.1890579312985885,-1.4826011162903947,-7.480460597042704,-4.633128486197097,-33.80592768826021,-6.3892449028035365,0.7039234972683642,5.406495418198163,8.799043715854554,1.4350419992237997,7.449065848429238,0.18363855280140326,0.0,0.0,0.0,0.0,0.0,79723604344990.27,-128718485302889.25,0.0,238.22741392237288,1.6045980792281735,-1.6764705882352944,540.0,0.0,0.0,0.0,0.0,7.0,80.0,0.056919621664462516,24.00480477552648,24.004872258657603,-0.012230715143857429,-22.400829121878104,-0.00378839581512981,0.0,5.406495418198163,213.47088994422938,3.1111780212145237,12.808253396653763,0.0,2.0,0.0,0.0,0.0,0.0,2.0,540.0,1.0,540.0,0.0,0.0,0.0,0.0
1596474229416.0,-86.72542,36.16899,40.54510430255666,7.39000151993348,16.0,1.77,3.0,1.0,1771261432805.0,0.0,18.0,8.0,-0.03684358298778534,-1.6039756536483765,-0.0,0.0,0.0,-22.61946678161621,-0.001769028476063383,-0.1635599888095991,1559.0,0.0,0.0,-63.2,62.22222222222222,69.0,0.0,0.0,0.0,0.0,82.28506650220486,68.19965135148013,40.79778349447093,-4.787494779061999,-1.8532513951861624,-14.960921194085252,-9.266256972394194,-30.385845306968612,-7.528309675200093,0.7039234972683589,6.110418915466521,17.598087431708972,10.208085911775491,40.5807600191233,0.8282923542673517,0.0,0.0,0.0,0.0,0.0,1301636745.5348122,-2101569696.7925305,0.0,238.2274139142151,1.604398749408673,-0.5961538461538466,580.0,0.0,0.0,0.0,0.0,8.0,40.0,-3.1227602523164926,27.854609800847676,28.029108418765787,-3.0859166693287072,-26.2506341471993,-0.0038879098512800622,0.0,6.110418915466521,210.9607143915761,3.0185497662058896,12.657642863494566,0.0,2.0,0.0,0.0,0.0,0.0,2.0,580.0,1.0,580.0,0.0,0.0,0.0,0.0
1596474229536.0,-86.72543,36.16899,40.55059070238109,7.301000473861615,16.0,1.74,3.0,1.0,1771261432910.0,0.0,18.0,9.0,-0.006276255939155817,-1.6039756536483765,-0.0,0.0,0.0,-14.940018653869629,-0.0017566752370408482,-0.1635599888095991,1505.0,0.0,0.0,-44.0,62.22222222222222,69.0,0.0,0.0,0.0,0.0,81.68662965482213,67.82900107258436,40.80326989429536,-5.3859316264447274,-2.22390167408193,-4.986973728189407,-3.088752324131396,-24.73176003012428,-8.406484357297359,0.7039234969447246,6.814342412411246,5.866029141206038,-1.4349713326555769,6.746710996545185,-0.28195040852148434,0.0,0.0,0.0,0.0,0.0,-5.834759261791432,-0.8308118282335273,0.0,252.14202494875644,1.60398793289892,0.7217194570135744,700.0,0.0,0.0,0.0,0.0,9.0,120.0,-5.07726562878006,30.877171322913213,31.291825372926482,-5.070989372840904,-29.273195669264837,-0.0038755566122575273,0.0,6.814342412411246,206.1361323544719,3.8708106360690566,12.368167941268313,0.0,2.0,0.0,0.0,0.0,0.0,2.0,700.0,1.0,700.0,0.0,0.0,0.0,0.0
1596474229696.0,-86.72544,36.16899,40.55882030211775,7.262000768907525,16.0,1.74,3.0,1.0,1771261433086.0,0.0,18.0,10.0,-0.031361665576696396,-1.6039756536483765,-0.0,0.0,0.0,-11.309733390808105,-0.0019253589452750276,-0.1635599888095991,1301.0,0.0,690.0,-39.2,62.22222222222222,69.0,0.0,0.0,0.0,0.0,80.78897438412872,67.82900107258436,40.81149949403202,-6.28358689713814,-2.22390167408193,-5.6103454418338305,0.0,-8.604389034026942,-24.420011313020943,0.8976552706934129,7.711997683104659,5.6103454418338305,-1.6516553270736942,-1.4796279025854278,-0.05141461811956634,0.0,0.0,0.0,0.0,0.0,0.0,0.0,0.0,270.0,1.6042822231653884,-0.492081447963801,860.0,0.0,0.0,0.0,0.0,10.0,160.0,-3.050752062109434,24.913012928503125,25.09910957225831,-3.0193903965327378,-23.30903727485475,-0.004044240320491707,0.0,7.711997683104659,179.15172986076658,15.81441975354641,10.749103791645995,0.0,2.0,0.0,0.0,0.0,0.0,2.0,860.0,1.0,860.0,0.0,0.0,0.0,0.0
1596474229776.0,-86.72545,36.16899,40.56247790200071,7.165002190492369,16.0,1.72,3.0,1.0,1771261433157.0,0.0,18.0,11.0,-0.016465365886688232,-1.6039756536483765,-0.0,0.0,0.0,-11.030481338500977,-0.001978860547660376,-0.1635599888095991,1139.0,0.0,690.0,-40.4,62.22222222222222,69.0,0.0,0.0,0.0,0.0,79.89131911343532,67.82900107258436,40.815157093914976,-7.1812421678315355,-2.22390167408193,-11.220690883667439,0.0,-24.316332389104808,-7.669469854602286,0.8976552706933951,8.609652953798054,11.220690883667439,4.05568869317507,-19.919361787571848,-0.23049667356233025,0.0,0.0,0.0,0.0,0.0,0.0,0.0,0.0,270.0,1.604060162765262,-0.23755656108597287,940.0,0.0,0.0,0.0,0.0,11.0,80.0,-2.759789350795435,26.499054821920257,26.64237871729736,-2.7433239849087467,-24.89507916827188,-0.004097741922877055,0.0,8.609652953798054,158.96715307517994,24.322325531771696,9.538029184510796,0.0,2.0,0.0,0.0,0.0,0.0,2.0,940.0,1.0,940.0,0.0,0.0,0.0,0.0
1596474229856.0,-86.72546,36.16899,40.56400190195194,7.275000670558888,16.0,1.72,3.0,1.0,1771261433230.0,0.0,18.0,12.0,-0.03841264918446541,-1.6039756536483765,-0.0,0.0,0.0,-11.170106887817383,-0.002076180553784549,-0.1635599888095991,1007.0,0.0,690.0,-40.6,62.22222222222222,69.0,0.0,0.0,0.0,0.0,78.99366384274194,67.82900107258436,40.81668109386621,-8.078897438524912,-2.22390167408193,-11.220690883667206,0.0,-22.846960034101414,-3.72304135720906,0.8976552706933765,9.507308224491432,11.220690883667206,3.9456902131083185,-41.03391020808202,-0.26393185525637713,0.0,0.0,0.0,0.0,0.0,0.0,0.0,0.0,270.0,1.6044355484450303,0.07352941176470579,1020.0,0.0,0.0,0.0,0.0,12.0,80.0,-0.20566996936077855,23.53422756509979,23.535126241900628,-0.16725732017631315,-21.930251911451414,-0.004195061929001228,0.0,9.507308224491432,138.41923122773255,28.907063668985423,8.305153873663953,0.0,2.0,0.0,0.0,0.0,0.0,2.0,1020.0,1.0,1020.0,0.0,0.0,0.0,0.0
1596474230096.0,-86.72547,36.16899,40.59295790102535,6.865999982118429,16.0,1.62,3.0,1.0,1771261433473.0,0.0,18.0,13.0,-0.032930731773376465,-1.6039756536483765,-0.0,0.0,0.0,-13.823007583618164,-0.002387755250482346,-0.1635599888095991,893.0,0.0,690.0,-56.6,62.22222222222222,69.0,0.0,0.0,0.0,0.0,78.09600857166791,67.82900107258436,40.84563709293962,-8.976552709598941,-2.22390167408193,-3.740230296141789,0.0,-3.9559494969386364,-10.727474418040963,0.8976552710740293,10.404963495565461,3.7402302961417893,-3.1257696859766395,-1.4492091499159505,0.1649362544090253,0.0,1.0,0.0,0.0,0.0,0.0,0.0,0.0,270.0,1.6043136634062138,0.4411764705882353,1260.0,0.0,0.0,0.0,0.0,13.0,240.0,1.4532292573094292,-0.49919084616299614,1.5365763160979162,-1.4202985255360527,1.1047848074853803,-0.004506636625699025,0.0,10.404963495565461,130.0611713262013,21.992549042379515,7.803670279572078,0.0,2.0,0.0,0.0,0.0,0.0,2.0,1260.0,1.0,1260.0,0.0,0.0,0.0,0.0
1596474230176.0,-86.72548,36.16899,40.601797100742495,6.779001671926829,16.0,1.62,3.0,1.0,1771261433552.0,0.0,18.0,14.0,-0.05017082393169403,-1.6039756536483765,-0.0,0.0,0.0,-16.894786834716797,-0.0025252048102692914,-0.1635599888095991,882.0,0.0,690.0,-67.6,62.22222222222222,69.0,0.0,0.0,0.0,0.0,77.19835330097459,67.82900107258436,40.85447629265676,-9.874207980292274,-2.22390167408193,-11.220690883666661,0.0,-13.251676568077787,9.531800039428406,0.897655270693333,11.302618766258794,11.220690883666663,4.441689211739834,16.027502058450462,0.21845889010458017,0.0,0.0,0.0,0.0,0.0,0.0,0.0,0.0,270.0,1.604760109508808,0.0,1340.0,0.0,0.0,0.0,0.0,14.0,80.0,2.128339442132112,10.882998462095161,11.089160667376989,-2.0781686182004178,-9.279022808446785,-0.004644086185485971,0.0,11.302618766258794,130.10765341046226,13.630802268310097,7.8064592046277355,0.0,2.0,0.0,0.0,0.0,0.0,2.0,1340.0,1.0,1340.0,0.0,0.0,0.0,0.0
1596474230256.0,-86.72549,36.16899,40.60210190073274,6.5609985068888745,16.0,1.66,3.0,1.0,1771261433632.0,0.0,18.0,15.0,-0.07212790846824646,-1.6039756536483765,-0.0,0.0,0.0,-18.709930419921875,-0.002777740182977114,-0.1635599888095991,890.0,0.0,690.0,-76.6,62.22222222222222,69.0,0.0,0.0,0.0,0.0,76.30069803028128,67.82900107258436,40.85478109264701,-10.77186325098558,-2.22390167408193,-11.220690883666329,0.0,-14.700996054759232,17.474288139800798,0.8976552706933063,12.2002740369521,11.220690883666329,4.659692376777454,8.74261334884965,-0.09106110887001015,0.0,0.0,0.0,0.0,0.0,0.0,0.0,0.0,270.0,1.6055965659768772,0.0,1420.0,0.0,0.0,0.0,0.0,15.0,80.0,3.192097517699792,14.947412746346473,15.284457280916001,-3.1199696092315454,-13.343437092698096,-0.004896621558193794,0.0,12.2002740369521,135.6500842159198,4.168975827561041,8.139005052955188,0.0,2.0,0.0,0.0,0.0,0.0,2.0,1420.0,1.0,1420.0,0.0,0.0,0.0,0.0
1596474230536.0,-86.7255,36.16899,40.62160910010851,6.131000384453762,16.0,1.6,3.0,1.0,1771261433917.0,0.0,18.0,16.0,-0.06114446371793747,-1.6039756536483765,-0.0,0.0,0.0,-24.43461036682129,-0.0036321612705430295,-0.1635599888095991,924.0,0.0,690.0,-102.5,62.22222222222222,69.0,0.0,0.0,0.0,0.0,75.40304275920732,67.82900107258436,40.874288292022776,-11.669518522059528,-2.22390167408193,-3.2059116824069553,0.0,-42.09112585475715,7.992309789587596,0.8976552710739476,13.097929308026048,3.205911682406956,-2.9250887020468066,1.4115846377053347,-0.02618224539694398,0.0,0.0,0.0,0.0,0.0,0.0,0.0,0.0,270.0,1.6051406614188337,0.0,1700.0,0.0,0.0,0.0,0.0,16.0,280.0,6.81234922815521,46.56336670243007,47.05906098373958,-6.751204764437272,-44.9593910487817,-0.005751042645759709,0.0,13.097929308026048,150.70949960188645,9.744794191212003,9.042569976113187,0.0,2.0,0.0,0.0,0.0,0.0,2.0,1700.0,1.0,1700.0,0.0,0.0,0.0,0.0
1596474230656.0,-86.72551,36.16899,40.61947550017678,5.966999561901527,16.0,1.64,3.0,1.0,1771261434050.0,0.0,18.0,17.0,-0.06114446371793747,-1.6039756536483765,-0.0,0.0,0.0,-25.551620483398438,-0.0038081004373487983,-0.1635599888095991,924.0,0.0,690.0,-104.4,62.22222222222222,69.0,0.0,0.0,0.0,0.0,74.50538748775274,67.82900107258436,40.87215469209105,-12.56717379351412,-2.22390167408193,-7.480460595454938,0.0,-38.35655226677647,15.830707518884982,0.8976552714545925,13.99558457948064,7.480460595454938,1.513461033553411,4.15212692790575,0.022837852418336798,0.0,0.0,0.0,0.0,0.0,0.0,0.0,0.0,270.0,1.6051406614188337,0.0,1820.0,0.0,0.0,0.0,0.0,17.0,120.0,10.085425882453766,43.637590828603834,44.787890646413764,-10.024281418735828,-42.03361517495546,-0.005926981812565478,0.0,13.99558457948064,154.85169563269505,11.832398643659113,9.291101737961704,0.0,2.0,0.0,0.0,0.0,0.0,2.0,1820.0,1.0,1820.0,0.0,0.0,0.0,0.0
1596474230736.0,-86.72552,36.16899,40.620694700137776,5.804000107289422,16.0,1.64,3.0,1.0,1771261434110.0,0.0,18.0,18.0,-0.007835513912141323,-1.6039756536483765,-0.0,0.0,0.0,-24.993114471435547,-0.0038595303806601452,-0.1635599888095991,926.0,0.0,690.0,-107.3,62.22222222222222,69.0,0.0,0.0,0.0,0.0,73.60773221629817,67.82900107258436,40.873373892052044,-13.464829064968677,-2.22390167408193,-11.220690893181962,0.0,-41.25663016989934,23.35610644441848,0.8976552714545569,14.893239850935197,11.220690893181962,5.4166907858925395,6.54094231783454,0.029860192374109872,0.0,0.0,0.0,0.0,0.0,-13.016001429241399,-0.8308118276194896,0.0,287.8579750580527,1.6039947920037034,0.0,1900.0,0.0,0.0,0.0,0.0,18.0,80.0,9.799555637824318,47.90375161425603,48.89581484564044,-9.791720123912176,-46.299775960607654,-0.005978411755876824,0.0,14.893239850935197,159.54513833261447,10.34293715586754,9.572708299956869,0.0,2.0,0.0,0.0,0.0,0.0,2.0,1900.0,1.0,1900.0,0.0,0.0,0.0,0.0
1596474230936.0,-86.72553,36.16899,40.629838699845166,5.45299829231003,16.0,1.75,3.0,1.0,1771261434314.0,0.0,18.0,19.0,-0.06349805742502213,-1.6039756536483765,-0.0,0.0,0.0,-25.551620483398438,-0.0042119444370552345,-0.1635599888095991,927.0,0.0,690.0,-117.6,62.22222222222222,69.0,0.0,0.0,0.0,0.0,73.0092953689156,68.19965135148013,40.882517891759434,-14.063265912351257,-1.8532513951861622,-2.992184236912898,1.8532513944788387,-46.72378283428338,26.42494631917844,0.7039234969445979,15.597163347879794,3.5196174847229895,-1.933380807587041,-6.40969867861896,-0.0647532049822675,0.0,0.0,0.0,0.0,0.0,1301579127.7136135,2101476679.337012,0.0,301.77258610210714,1.6052320395486404,0.0,2100.0,0.0,0.0,0.0,0.0,19.0,200.0,9.774438043547908,54.24429263183789,55.117900197627435,-9.710939986122886,-52.64031697818951,-0.006330825812271914,0.0,15.597163347879794,169.99821938460556,8.30659125944551,10.199893163076334,0.0,2.0,0.0,0.0,0.0,0.0,2.0,2100.0,1.0,2100.0,0.0,0.0,0.0,0.0
1596474230976.0,-86.72553,36.169,40.629229099864666,5.416998220783749,16.0,1.75,3.0,1.0,1771261434365.0,0.0,18.0,20.0,-0.03684358298778534,-1.6039756536483765,-0.0,0.0,0.0,-25.691246032714844,-0.004240376034157406,-0.1635599888095991,923.0,0.0,690.0,-118.5,62.22222222222222,69.0,0.0,0.0,0.0,0.0,72.41085852191372,68.5703016303759,40.881908291778934,-14.661702759353139,-1.4826011162903947,-14.960921175047037,9.266256972394189,-43.206314696807084,27.000691290638702,0.7039234966209492,16.301086844500745,17.59808741552373,12.181089194739979,1907.2487257274001,47.84146061015048,0.0,0.0,0.0,0.0,0.0,17187166619368.893,27749699342574.88,0.0,301.7725861102658,1.604398749408673,0.0,2140.0,0.0,0.0,0.0,0.0,20.0,40.0,9.558810789978477,50.89068086126835,51.780616665332154,-9.521967206990691,-49.286705207619974,-0.006359257409374085,0.0,16.301086844500745,170.38957045595214,7.745390604450063,10.223374227357128,0.0,2.0,0.0,0.0,0.0,0.0,2.0,2140.0,1.0,2140.0,0.0,0.0,0.0,0.0
1596474231196.0,-86.72554,36.169,40.634410699698854,5.080999043335986,16.0,1.66,3.0,1.0,1771261434570.0,0.0,18.0,21.0,-0.025085411965847015,-1.6039756536483765,-0.0,0.0,0.0,-23.596851348876953,-0.00434985738415169,-0.1635599888095991,889.0,0.0,690.0,-117.3,62.22222222222222,69.0,0.0,0.0,0.0,0.0,71.81242167491186,68.94095190927166,40.88708989161312,-15.260139606354992,-1.111950837394627,-2.7201674863720595,1.6847739949807625,-34.85752112552452,25.999784356651986,0.7039234966209252,17.005010341121668,3.199652257367842,-1.8813467859681436,2.9967736194088044,-8.655690691399961,0.0,0.0,0.0,0.0,0.0,-15.708967241701544,-2.5050406821666273,0.0,287.8579750641598,1.6041718035766097,0.0,2360.0,0.0,0.0,0.0,0.0,21.0,220.0,6.156828782954838,42.25703031007647,42.70319837306502,-6.131743370988991,-40.6530546564281,-0.006468738759368369,0.0,17.005010341121668,174.96559090401192,6.521930105918327,10.497935454240714,0.0,2.0,0.0,0.0,0.0,0.0,2.0,2360.0,1.0,2360.0,0.0,0.0,0.0,0.0
1596474231316.0,-86.72555,36.169,40.632581899757376,4.845999445671319,16.0,1.65,3.0,1.0,1771261434695.0,0.0,18.0,22.0,-0.028223538771271706,-1.6039756536483765,-0.0,0.0,0.0,-22.340213775634766,-0.004029955784966368,-0.1635599888095991,883.0,0.0,690.0,-112.1,62.22222222222222,69.0,0.0,0.0,0.0,0.0,70.91476640421877,68.94095190927166,40.885261091671644,-16.157794877048094,-1.111950837394627,-7.4804605891091835,0.0,-34.27390802213112,23.42222551721828,0.897655270693102,17.90266561181477,7.480460589109184,2.634461143437865,2.8063561599925726,-0.0015868121618019316,1.0,0.0,1.0,0.0,2.8063561599925726,-15.708967241701542,0.28113900780248835,1.0,287.85797505905646,1.6042239449769817,0.0,2480.0,0.0,0.0,0.0,0.0,22.0,120.0,4.16800222177017,40.93984687995766,41.151467836215275,-4.139778682998898,-39.33587122630929,-0.006148837160183047,0.0,17.90266561181477,182.21215456158134,5.680627099326002,10.93272927369488,0.0,2.0,0.0,0.0,0.0,0.0,2.0,2480.0,1.0,2480.0,0.0,0.0,0.0,0.0
1596474231416.0,-86.72556,36.169,40.64233549944527,4.668998721467719,16.0,1.89,3.0,1.0,1771261434819.0,0.0,18.0,23.0,-0.029792603105306625,-1.6039756536483765,-0.0,0.0,0.0,-20.245819091796875,-0.003987447304614163,-0.1635599888095991,888.0,0.0,690.0,-100.5,62.22222222222222,70.0,0.0,0.0,0.0,0.0,70.31632955683627,69.3116021884032,40.895014691359535,-16.75623172443059,-0.7413005582630846,-5.984368473824979,3.7065027913154234,-30.53794954403913,19.26801477233759,0.7039234970686753,18.606589108883444,7.039234970686753,2.370236249219034,192.51827528670776,1.8971191912671521,1.0,0.0,1.0,0.0,192.51827528670776,19991115290283.312,32276840686638.21,1.0,301.7725861102679,1.6042523170301257,0.0,2580.0,0.0,0.0,0.0,0.0,23.0,100.0,3.1081929362014424,36.021604728324206,36.155454229372936,-3.078400333096136,-34.41762907467583,-0.006106328679830842,0.0,18.606589108883444,190.1906710569528,8.663955597090553,11.411440263417168,0.0,2.0,0.0,0.0,0.0,0.0,2.0,2580.0,1.0,2580.0,0.0,0.0,0.0,0.0
1596474231496.0,-86.72556,36.16901,40.649041099230686,4.616002217314724,16.0,1.97,3.0,1.0,1771261434887.0,0.0,18.0,24.0,0.014111769385635853,-1.6039756536483765,-0.0,0.0,0.0,-17.87217140197754,-0.003750684121854639,-0.1635599888095991,886.0,0.0,690.0,-93.8,62.22222222222222,70.0,0.0,0.0,0.0,0.0,69.71789270945379,69.68225246753475,40.901720291144954,-17.354668571813065,-0.3706502791315423,-7.480460592280913,4.633128489144279,-18.57218359525094,13.641806318470588,0.7039234970686541,19.3105126059521,8.799043713358175,4.183041496043451,50.6698854289403,-1.7731048732220933,1.0,0.0,1.0,0.0,50.6698854289403,1301553524.0798101,2101435346.2121105,1.0,301.77258611842683,1.6040377300836566,0.0,2660.0,0.0,0.0,0.0,0.0,24.0,80.0,1.0795161944259126,22.40408532121219,22.430077893181362,-1.0654044250402768,-20.800109667563813,-0.005869565497071318,0.0,19.3105126059521,191.9409823237508,7.820113324965194,11.516458939425048,0.0,2.0,0.0,0.0,0.0,0.0,2.0,2660.0,1.0,2660.0,0.0,0.0,0.0,0.0
1596474231696.0,-86.72557,36.16901,40.66245229880153,4.344999418848963,16.0,1.64,3.0,1.0,1771261435074.0,0.0,18.0,25.0,-0.010973641648888588,-1.6039756536483765,-0.0,0.0,0.0,-14.381512641906738,-0.0032687360684236005,-0.1635599888095991,876.0,0.0,690.0,-72.1,62.22222222222222,70.0,0.0,0.0,0.0,0.0,69.11945586245203,70.05290274666629,40.9151314907158,-17.953105418814832,0.0,-2.992184235008839,1.8532513956577115,-8.941889781455714,6.549798682404889,0.7039234967449997,20.014436102697097,3.519617483724998,-0.8253819351239651,15.931110055003783,-0.17369387686968257,1.0,0.0,1.0,0.0,15.931110055003783,-18.401933054351648,-1.393089844428567,1.0,287.85797507537205,1.6040131914382048,0.0,2860.0,0.0,0.0,0.0,0.0,25.0,200.0,-0.2325984073228718,10.651338888508327,10.653878267416939,-0.2216247656739832,-9.04736323485995,-0.00538761744364028,0.0,20.014436102697097,201.61107414648671,7.966726472610727,12.096664448789202,0.0,2.0,0.0,0.0,0.0,0.0,2.0,2860.0,1.0,2860.0,0.0,0.0,0.0,0.0
1596474231976.0,-86.72558,36.16901,40.6819594981773,4.210000268223555,16.0,1.9,3.0,1.0,1771261435350.0,0.0,18.0,26.0,0.019603494554758072,-1.6039756536483765,-0.0,0.0,0.0,-0.41887903213500977,-0.0020862582671801345,-0.1635599888095991,863.0,0.0,0.0,16.4,62.22222222222222,70.0,0.0,0.0,0.0,0.0,68.2218005913784,70.05290274666629,40.93463869009157,-18.850760689888464,0.0,-3.205911682405826,0.0,-2.3732173611675975,-2.1198588333530584,0.8976552710736314,20.91209137377073,3.2059116824058265,-1.0040885858177289,-5.3219683977308385,-0.07590385161690935,1.0,0.0,1.0,0.0,-5.3219683977308385,0.0,0.0,1.0,270.0,1.6040954443222806,0.0,3140.0,0.0,0.0,0.0,0.0,26.0,280.0,-0.015307187341295131,1.2094426414877397,1.2095395045359796,0.004296307213462941,0.39453301216063674,-0.004205139642396814,0.0,20.91209137377073,204.98811045543,7.231850913299218,12.299286627325799,0.0,2.0,0.0,0.0,0.0,0.0,2.0,3140.0,1.0,3140.0,0.0,0.0,0.0,0.0
1596474232136.0,-86.72559,36.16901,40.69506589775789,4.079999910592148,15.0,1.95,3.0,1.0,1771261435514.0,0.0,18.0,27.0,0.07368716597557068,-1.6039756536483765,-0.0,0.0,0.0,12.007864952087402,-0.0009147039273629622,-0.1635599888095991,846.0,0.0,0.0,98.0,62.22222222222222,70.0,0.0,0.0,0.0,0.0,67.32414532030481,70.05290274666629,40.94774508967216,-19.74841596096205,0.0,-5.610345444209908,0.0,15.966118561272257,-11.464502299538655,0.8976552710735852,21.809746644844314,5.610345444209908,1.5303455336177594,-3.1516876361463435,0.013564254759903093,1.0,0.0,1.0,0.0,-3.1516876361463435,0.0,0.0,1.0,270.0,1.605667367771497,0.0,3300.0,0.0,0.0,0.0,0.0,27.0,160.0,-1.4543162545606758,-20.015120384615756,20.067886779104086,-1.3806290885851051,-18.41114473096738,-0.0030335853025796416,0.0,21.809746644844314,207.3529457203386,6.7776148294406475,12.441176743220316,0.0,2.0,0.0,0.0,0.0,0.0,2.0,3300.0,1.0,3300.0,0.0,0.0,0.0,0.0
1596474232456.0,-86.7256,36.16901,40.69750429767986,4.112000321868266,16.0,1.64,3.0,1.0,1771261435873.0,0.0,18.0,28.0,0.06506712734699249,-1.6039756536483765,-0.0,0.0,0.0,32.11405944824219,0.001246087843041344,-0.1635599888095991,862.0,0.0,690.0,213.3,62.22222222222222,70.0,0.0,0.0,0.0,0.0,66.4264900488506,70.05290274666629,40.95018348959413,-20.646071232416258,0.0,-2.8051727232944024,0.0,-6.876278772832357,1.4885604284669698,0.8976552714542088,22.707401916298522,2.8051727232944024,-1.306827598573864,5.741025997718769,0.02778973010582848,1.0,0.0,1.0,0.0,5.741025997718769,0.0,0.0,1.0,270.0,1.6052948727750693,-0.962566844919786,3620.0,0.0,0.0,0.0,0.0,28.0,320.0,-3.0097301156505174,7.951359571202027,8.501917101430697,-2.944662988303525,-6.347383917553651,-0.0008727935321753352,0.0,22.707401916298522,209.6303337856634,3.4279630521280438,12.577820027139802,0.0,2.0,0.0,0.0,0.0,0.0,2.0,3620.0,1.0,3620.0,0.0,0.0,0.0,0.0
1596474232576.0,-86.72561,36.16901,40.69506589775789,3.8640003755129775,16.0,1.58,3.0,1.0,1771261435951.0,0.0,18.0,29.0,0.08779893815517426,-1.6039756536483765,-0.0,0.0,0.0,38.25761795043945,0.0019920196566945185,-0.1635599888095991,856.0,0.0,690.0,252.6,62.22222222222222,70.0,0.0,0.0,0.0,0.0,65.52883477777712,70.05290274666629,40.94774508967216,-21.543726503489733,0.0,-7.480460592278959,0.0,-0.6174956572528345,-2.3438429524427873,0.8976552710734751,23.605057187371997,7.48046059227896,3.6164602167659825,-28.044160062178637,-0.2815432171658117,1.0,0.0,1.0,0.0,-28.044160062178637,0.0,0.0,1.0,270.0,1.6063768396730302,-0.1604278074866308,3740.0,0.0,0.0,0.0,0.0,29.0,120.0,-3.9746649334260495,1.244453728179588,4.164928140386912,-3.8868659952708753,0.3595219254687885,-0.00012686171852216085,0.0,23.605057187371997,221.53206956827975,7.352610820541409,13.291924174096785,0.0,2.0,0.0,0.0,0.0,0.0,2.0,3740.0,1.0,3740.0,0.0,0.0,0.0,0.0
1596474232756.0,-86.72562,36.16901,40.7194498969776,3.823000169874918,16.0,1.58,3.0,1.0,1771261436130.0,0.0,18.0,30.0,0.07682529836893082,-1.6039756536483765,-0.0,0.0,0.0,45.23893356323242,0.003112918745842537,-0.1635599888095991,850.0,0.0,690.0,305.8,62.22222222222222,70.0,0.0,0.0,0.0,0.0,64.63117950708437,70.05290274666629,40.97212908889187,-22.441381774182485,0.0,-4.986973726070845,0.0,-3.3917682068637682,-5.851042083638587,0.8976552706927521,24.50271245806475,4.986973726070845,1.163973556195927,-4.833568803042591,0.12894772921742248,1.0,0.0,1.0,0.0,-4.833568803042591,-21.99255413883611,-2.3593016084096483,1.0,259.2288999627403,1.6058144425699414,0.6787330316742081,3920.0,0.0,0.0,0.0,0.0,30.0,180.0,-2.792025981091538,3.7329869271225253,4.661609215405967,-2.715200682722607,-2.129011273474149,0.0009940373706258578,0.0,24.50271245806475,222.33846775576015,7.824098360446779,13.340308065345608,0.0,2.0,0.0,0.0,0.0,0.0,2.0,3920.0,1.0,3920.0,0.0,0.0,0.0,0.0
1596474233256.0,-86.72563,36.16901,40.7319466965777,3.2880001251709925,16.0,1.78,3.0,1.0,1771261436633.0,0.0,18.0,31.0,0.06506712734699249,-1.6039756536483765,-0.0,0.0,0.0,57.94493103027344,0.005113401844910859,-0.1635599888095991,854.0,0.0,690.0,357.6,62.22222222222222,70.0,0.0,0.0,0.0,0.0,63.73352423639169,69.68225246753475,40.98462588849197,-23.33903704487517,-0.3706502791315423,-1.7953105413853692,-0.7413005582630846,-1.2662478716296324,-3.3104197455154427,0.9711676551567433,25.473880113221494,1.9423353103134866,-1.3456648148575059,-1.544089775248735,0.006578958055587713,1.0,0.0,1.0,0.0,-1.544089775248735,15588027085988.197,-37751690640147.01,1.0,247.56381056132938,1.6052948727750693,1.6297819827231592,4420.0,0.0,0.0,0.0,0.0,31.0,500.0,-2.825470843721462,2.8363909119959088,4.003548288003163,-2.7604037163744697,-1.2324152583475323,0.00299452046969418,0.0,25.473880113221494,259.73235020956326,21.74008240834639,15.583941012573796,1.0,2.0,0.0,0.0,0.0,0.0,2.0,4420.0,1.0,4420.0,0.0,0.0,0.0,0.0
1596474233476.0,-86.72564,36.169,40.7535874958852,3.2439998390658666,16.0,1.82,3.0,1.0,1771261436851.0,0.0,18.0,32.0,0.05330894887447357,-1.6039756536483765,-0.0,0.0,0.0,56.26941680908203,0.005246056887094858,-0.1635599888095991,867.0,0.0,690.0,357.6,62.22222222222222,70.0,0.0,0.0,0.0,0.0,62.83586896569906,69.3116021884032,41.00626668779947,-24.236692315567794,-0.7413005582630846,-4.080251230421019,-1.684773996052465,-2.622681500513499,-1.6925219571114334,0.9711676551566875,26.44504776837818,4.4143984325303975,1.170398593464531,-38.94735991323701,-0.17001486426358306,1.0,0.0,1.0,0.0,-38.94735991323701,-23.069490454079126,-2.2957620767226476,1.0,233.09813463401633,1.6048612842008612,1.507404360345537,4640.0,0.0,0.0,0.0,0.0,32.0,220.0,-2.414844199183449,5.171334447772342,5.7073787746256,-2.3615352503089753,-3.5673587941239653,0.003127175511878179,0.0,26.44504776837818,267.2626519764745,24.194331471215445,16.03575911858847,1.0,2.0,0.0,0.0,0.0,0.0,2.0,4640.0,1.0,4640.0,0.0,0.0,0.0,0.0
1596474233696.0,-86.72565,36.169,40.77522829519269,2.8639999284737185,16.0,1.79,3.0,1.0,1771261437078.0,0.0,18.0,33.0,0.04233530908823013,-1.6039756536483765,-0.0,0.0,0.0,53.05801010131836,0.005102961692094718,-0.1635599888095991,872.0,0.0,0.0,357.6,62.77777777777778,70.0,0.0,0.0,0.0,0.0,62.23743211831689,68.5703016303759,41.02790748710696,-24.835129162949972,-1.4826011162903947,-2.72016748810081,-3.3695479910332278,0.1300491989131108,-2.141924239352144,0.9527083381792781,27.39775610655746,4.330492446269447,1.4664925177957282,-14.576105869558392,0.11077842747126644,1.0,0.0,1.0,0.0,-14.576105869558392,-22.25054339343326,-2.9568813647614935,1.0,209.70097937488913,1.604534255132103,1.3500617030028794,4860.0,0.0,0.0,0.0,0.0,33.0,220.0,-1.9489365608261542,1.8310114543746001,2.6741272714992204,-1.906601251737924,-0.22703580072622365,0.0029840803168780386,0.0,27.39775610655746,304.4692813469118,33.670445788811755,18.268156880814708,1.0,1.0,0.0,0.0,0.0,0.0,2.0,4860.0,1.0,4860.0,0.0,0.0,0.0,0.0
1596474233856.0,-86.72565,36.16899,40.74932029602175,2.6210001162302072,16.0,1.7,3.0,1.0,1771261437235.0,0.0,18.0,34.0,0.03998171165585518,-1.6039756536483765,-0.0,0.0,0.0,52.49950408935547,0.0049168103486416734,-0.1635599888095991,883.0,0.0,0.0,357.6,62.77777777777778,70.0,0.0,0.0,0.0,0.0,61.9382136946258,67.82900107211282,41.00199948793602,-25.134347586641052,-2.2239016745534794,-1.8701151480692513,-4.633128489144279,1.7144778678219839,-2.9991074158018542,0.7994111475062978,28.197167254063757,4.996319671914361,2.375319555684154,-10.467355022263707,0.02567969279559178,1.0,0.0,1.0,0.0,-10.467355022263707,-22.689063735043916,-2.779877093132905,1.0,192.8093701250474,1.604473880985187,0.9056531703590525,5020.0,0.0,0.0,0.0,0.0,34.0,160.0,-1.5350031178866574,0.442221174966926,1.5974336103609716,-1.4950214062308023,1.1617544786814504,0.002797928973424994,0.0,28.197167254063757,336.89430020706055,35.70287865635283,20.213658012423632,1.0,1.0,0.0,0.0,0.0,0.0,2.0,5020.0,1.0,5020.0,0.0,0.0,0.0,0.0
1596474234516.0,-86.72565,36.16898,40.749625096012004,2.379999910592148,16.0,1.5,3.0,1.0,1771261437896.0,0.0,18.0,35.0,0.021947283297777176,-1.6039756536483765,-0.0,0.0,0.0,45.93706512451172,0.004014559629257781,-0.1635599888095991,1306.0,9.0,0.0,357.6,62.77777777777778,70.0,0.0,0.0,0.0,0.0,61.9382136946258,66.71705023495396,41.00230428792627,-25.134347586641052,-3.335852511712332,0.0,-1.6847739956952312,1.048561697221639,-2.3095267572303144,1.1119508371588527,29.309118091222608,1.6847739956952312,-0.6952259148969169,-2.822361530046079,0.011583323473057012,1.0,0.0,1.0,0.0,-2.822361530046079,0.0,0.0,1.0,180.0,1.604125799537209,0.8884644766997706,5680.0,0.0,0.0,0.0,0.0,35.0,660.0,-2.2765458461385877,-0.23358138608676937,2.28849759744184,-2.2545985628408105,1.3703942675616072,0.001895678254041102,0.0,29.309118091222608,548.7395164124459,126.18103731454072,32.92437098474676,1.0,1.0,0.0,0.0,0.0,0.0,2.0,5680.0,1.0,5680.0,0.0,0.0,0.0,0.0
1596474234976.0,-86.72565,36.16897,40.71975469696785,2.3710001162302072,16.0,1.66,3.0,1.0,1771261438352.0,0.0,18.0,36.0,0.03527452051639557,-1.6039756536483765,-0.0,0.0,0.0,47.33332824707031,0.0037333538977310137,-0.1635599888095991,1303.0,9.0,0.0,357.6,62.77777777777778,70.0,0.0,0.0,0.0,0.0,61.9382136946258,65.60509939755933,40.972433888882115,-25.134347586641052,-4.447803349106959,0.0,-2.417284429118754,4.160943364014161,-1.8251990596617207,1.1119508373946267,30.421068928617235,2.417284429118754,0.04628431288854662,-1.5070578551617428,0.002859355814965948,1.0,0.0,1.0,0.0,-1.5070578551617428,0.0,0.0,1.0,180.0,1.6043634841563796,0.4510489510489504,6140.0,0.0,0.0,0.0,0.0,36.0,460.0,-1.810884700807836,-1.875732385217125,2.607235198552714,-1.7756101802914404,-0.2717567315687486,0.0016144725225143344,0.0,30.421068928617235,549.5571219421602,132.5681959882465,32.97342731652961,1.0,1.0,0.0,0.0,0.0,0.0,2.0,6140.0,1.0,6140.0,0.0,0.0,0.0,0.0
1596474235416.0,-86.72565,36.16896,40.73408029650943,2.318000035763141,16.0,1.48,3.0,1.0,1771261438791.0,0.0,18.0,37.0,0.05330894887447357,-1.6039756536483765,-0.0,0.0,0.0,49.70697784423828,0.003925814838650291,-0.1635599888095991,1139.0,8.0,0.0,357.6,62.77777777777778,70.0,0.0,0.0,0.0,0.0,61.9382136946258,64.49314856063626,40.9867594884237,-25.134347586641052,-5.559754186030037,0.0,-2.5271609930069947,1.5903650202698252,-1.3343610240447359,1.1119508369230777,31.533019765540313,2.527160993006995,0.2091609572438542,-4.324935519566803,-0.006404267419102409,1.0,0.0,1.0,0.0,-4.324935519566803,0.0,0.0,1.0,180.0,1.6048612842008612,0.3219133807369103,6580.0,0.0,0.0,0.0,0.0,37.0,440.0,-3.0458600511660974,2.508718766888486,3.9460021924256488,-2.992551102291624,-0.9047431132401096,0.001806933463433612,0.0,31.533019765540313,491.37186472260515,100.26815272599868,29.482311883356306,1.0,1.0,0.0,0.0,0.0,0.0,2.0,6580.0,1.0,6580.0,0.0,0.0,0.0,0.0
1596474235816.0,-86.72565,36.16895,40.72981309664598,2.8099998211842965,16.0,1.74,3.0,1.0,1771261439194.0,0.0,18.0,38.0,0.04625796899199486,-1.6039756536483765,-0.0,0.0,0.0,53.33726119995117,0.004413078916185392,-0.1635599888095991,1104.0,5.0,0.0,357.6,62.77777777777778,70.0,0.0,0.0,0.0,0.0,61.9382136946258,63.3811977234774,40.982492288560245,-25.134347586641052,-6.671705023188888,0.0,-2.7798770928971295,1.628684850931406,0.004142873441612516,1.1119508371588518,32.64497060269917,2.7798770928971295,-0.030122728287167,-5.149157551638169,-0.0020605550801784146,1.0,0.0,1.0,0.0,-5.149157551638169,0.0,0.0,1.0,180.0,1.6046425449900052,0.5779808426867252,6980.0,0.0,0.0,0.0,0.0,38.0,400.0,-2.2150770405300495,0.38679815947662566,2.248594919423654,-2.1688190715380546,1.2171774941717508,0.002294197540968713,0.0,32.64497060269917,392.8825872788528,73.72000522202522,23.572955236731165,1.0,1.0,0.0,0.0,0.0,0.0,2.0,6980.0,1.0,6980.0,0.0,0.0,0.0,0.0
1596474236316.0,-86.72565,36.16894,40.70512429743602,3.022000143052563,16.0,1.67,3.0,1.0,1771261439713.0,0.0,18.0,39.0,0.06349805742502213,-1.6039756536483765,-0.0,0.0,0.0,57.80530548095703,0.005226109754838574,-0.1635599888095991,944.0,5.0,0.0,357.6,62.77777777777778,70.0,0.0,0.0,0.0,0.0,61.9382136946258,62.26924688631855,40.95780348935029,-25.134347586641052,-7.78365586034774,0.0,-2.2239016743177036,2.8431506773535906,-0.5492542952549764,1.1119508371588518,33.75692143985802,2.2239016743177036,-0.7980984687348593,-1.854387681808703,0.0065895397396589315,1.0,0.0,1.0,0.0,-1.854387681808703,-22.68906373504391,-7.227680441768314,1.0,167.19062987495266,1.6052320395486404,0.09847166408252417,7480.0,0.0,0.0,0.0,0.0,39.0,500.0,-1.0252768423411038,0.14283185416297622,1.0351780243052777,-0.9617787849160817,1.4611437994854002,0.0031072283796218948,0.0,33.75692143985802,312.3758952064287,105.04300334799737,18.74255371238572,1.0,1.0,0.0,0.0,0.0,0.0,2.0,7480.0,1.0,7480.0,0.0,0.0,0.0,0.0
1596474236576.0,-86.72565,36.16893,40.71792589702637,3.3829999910592146,16.0,1.77,3.0,1.0,1771261439957.0,0.0,18.0,40.0,0.07682529836893082,-1.6039756536483765,-0.0,0.0,0.0,60.03932571411133,0.005785136774510054,-0.1635599888095991,912.0,5.0,0.0,357.6,62.77777777777778,70.0,0.0,0.0,0.0,0.0,62.23743211831689,61.527946328055464,40.97060508894064,-24.835129162949972,-8.524956418610826,1.150840091119539,-2.851155993319559,1.7118145133770315,0.5864764383886671,0.7994111475062984,34.55633258736432,3.0746582596396093,-0.3083417314196053,-5.72379477413192,-0.014882334970473914,1.0,0.0,1.0,0.0,-5.72379477413192,-23.927166599404643,-7.727428058726068,1.0,138.704852718793,1.6058144425699414,0.5500525115909733,7740.0,0.0,0.0,0.0,0.0,40.0,260.0,0.2164675420419112,1.018437382103936,1.0411882145051323,-0.1396422436729804,0.5855382715444404,0.0036662553992933746,0.0,34.55633258736432,269.58321088095937,97.65806817993865,16.17499265285756,1.0,1.0,0.0,0.0,0.0,0.0,2.0,7740.0,1.0,7740.0,0.0,0.0,0.0,0.0
1596474236856.0,-86.72564,36.16893,40.71061069726046,3.1459998927105777,16.0,1.94,3.0,1.0,1771261440233.0,0.0,18.0,41.0,0.07447170466184616,-1.6039756536483765,-0.0,0.0,0.0,61.71484375,0.006255353281330835,-0.1635599888095991,921.0,6.0,0.0,357.6,62.77777777777778,70.0,0.0,0.0,0.0,0.0,62.83586896569906,61.157296048923925,40.963289889174725,-24.236692315567794,-8.895606697742368,2.1372744549363505,-1.323750996898365,4.064579011499885,0.5114414553675268,0.7039234970684034,35.26025608443272,2.514012489530012,-0.6319874031805655,-2.6423301621413917,0.01100523075710903,1.0,0.0,1.0,0.0,-2.6423301621413917,-21.832637631650655,-4.345686879007426,1.0,117.85076260246876,1.6057035630190206,0.77887723136592,8020.0,0.0,0.0,0.0,0.0,41.0,280.0,-0.2940736948136736,3.0245817579167094,3.038844212575547,-0.21960199015182746,-1.420606104268333,0.004136471906114156,0.0,35.26025608443272,292.7527118274855,53.59039448933752,17.56516270964913,1.0,1.0,0.0,0.0,0.0,0.0,2.0,8020.0,1.0,8020.0,0.0,0.0,0.0,0.0
1596474237056.0,-86.72563,36.16893,40.70878189731898,3.3159999821184294,16.0,1.79,3.0,1.0,1771261440431.0,0.0,18.0,42.0,0.07447170466184616,-1.6039756536483765,-0.0,0.0,0.0,63.250732421875,0.006643302892414435,-0.1635599888095991,939.0,6.0,0.0,357.6,62.77777777777778,70.0,0.0,0.0,0.0,0.0,63.73352423639169,60.78664576979238,40.96146108923325,-23.33903704487517,-9.26625697687391,4.488276353463121,-1.8532513956577112,3.479399970593196,0.09183384295015928,0.9711676551566875,36.2314237395894,4.855838275783437,1.539838293665008,-18.938505354410374,-0.08148087596134491,1.0,0.0,1.0,0.0,-18.938505354410374,15626707053943.584,37845367291850.32,1.0,112.43618943867045,1.6057035630190206,0.7849458234073626,8220.0,0.0,0.0,0.0,0.0,42.0,200.0,-0.6264028335796136,2.6268043164201798,2.700459484361922,-0.5519311289177674,-1.0228286627718033,0.004524421517197756,0.0,36.2314237395894,283.17249851132965,17.987024341242225,16.99034991067978,1.0,1.0,0.0,0.0,0.0,0.0,2.0,8220.0,1.0,8220.0,0.0,0.0,0.0,0.0
1596474237256.0,-86.72562,36.16892,40.69689469769937,3.3380001251709923,16.0,1.72,3.0,1.0,1771261440634.0,0.0,18.0,43.0,0.07682529836893082,-1.6039756536483765,-0.0,0.0,0.0,64.36774444580078,0.006960809749343645,-0.1635599888095991,950.0,7.000000000000001,0.0,357.6,62.77777777777778,70.0,0.0,0.0,0.0,0.0,64.63117950708437,60.41599549066084,40.94957388961364,-22.441381774182485,-9.636907256005452,4.488276353463423,-1.8532513956577112,4.81958751965307,2.003722469969587,0.9711676551567433,37.20259139474614,4.855838275783716,1.5178381506127239,-7.248206491892652,0.05845149431258861,1.0,0.0,1.0,0.0,-7.248206491892652,14748390966603.84,35718227209878.63,1.0,112.43618943866903,1.6058144425699414,2.4563701758271903,8420.0,0.0,0.0,0.0,0.0,43.0,200.0,-0.9976923428687958,3.658222613982005,3.791831049040603,-0.920867044499865,-2.0542469603336286,0.004841928374126966,0.0,37.20259139474614,284.601547146837,9.606027142041825,17.076092828810218,0.0,1.0,0.0,0.0,0.0,0.0,2.0,8420.0,1.0,8420.0,0.0,0.0,0.0,0.0
1596474237776.0,-86.72561,36.16892,40.672510698479655,3.6329995440199556,16.0,1.84,3.0,1.0,1771261441159.0,0.0,18.0,44.0,0.09015253186225891,-1.6039756536483765,-0.0,0.0,0.0,63.250732421875,0.007656061329258844,-0.1635599888095991,1051.0,9.0,0.0,357.6,62.77777777777778,70.0,0.0,0.0,0.0,0.0,65.52883477777712,60.045345211529295,40.92518989039392,-21.543726503489737,-10.007557535136995,1.7262601359475933,-0.712788998329889,-18.02461617656278,-11.477010515164663,0.9711676551568024,38.17375904990295,1.8676301060707738,-1.7653694379491818,0.2096809479090481,0.014342091230387884,1.0,0.0,0.0,1.0,0.2096809479090481,2477257602.0324583,5999518912.111855,1.0,112.43618943438207,1.6065071977734529,3.065877561352675,8940.0,0.0,0.0,0.0,0.0,44.0,520.0,-1.786042859271719,-22.850096560598562,22.919791925840727,-1.69589032740946,-21.246120906950186,0.005537179954042164,0.0,38.17375904990295,289.2926319602717,4.394111738868483,17.3575579176163,0.0,1.0,0.0,0.0,0.0,0.0,2.0,8940.0,1.0,8940.0,0.0,0.0,0.0,0.0
1596474237976.0,-86.7256,36.16892,40.65300349910389,3.7009995797830966,16.0,1.78,3.0,1.0,1771261441350.0,0.0,18.0,45.0,0.10191071033477783,-1.6039756536483765,-0.0,0.0,0.0,64.9262466430664,0.007998306529376147,-0.1635599888095991,1097.0,9.0,0.0,357.6,62.77777777777778,70.0,0.0,0.0,0.0,0.0,66.4264900488506,59.674694932397756,40.90568269101816,-20.646071232416258,-10.378207814268537,4.488276355367393,-1.8532513956577112,2.7665237788697112,2.432918356261367,0.9711676555087132,39.14492670541166,4.855838277543566,1.1548386977604697,-8.09671309653686,-0.041531970222229535,1.0,0.0,0.0,1.0,-8.09671309653686,-20.346852808725085,-8.381235615795871,1.0,98.5215783822834,1.607209908623536,3.06527107884574,9140.0,0.0,0.0,0.0,0.0,45.0,200.0,0.1032425904039056,2.089018594903971,2.0915682447216177,-0.0013318800691277666,-0.48504294125559433,0.005879425154159468,0.0,39.14492670541166,296.4064103093715,5.962392894404748,17.78438461856229,0.0,1.0,0.0,0.0,0.0,0.0,2.0,9140.0,1.0,9140.0,0.0,0.0,0.0,0.0
1596474238096.0,-86.72559,36.16891,40.66428109874301,3.769000062585496,16.0,1.73,3.0,1.0,1771261441471.0,0.0,18.0,46.0,0.09407519549131393,-1.6039756536483765,-0.0,0.0,0.0,65.34513092041016,0.008238167627930318,-0.1635599888095991,1129.0,10.0,0.0,357.6,62.77777777777778,70.0,0.0,0.0,0.0,0.0,67.02492689623294,59.674694932397756,40.91696029065728,-20.047634385033916,-10.378207814268537,4.986973728186181,0.0,14.899270624117621,10.134841206779626,0.5984368473823416,39.74336355279401,4.986973728186181,1.2179736656006845,-2.7905138253965176,0.044218327259502845,1.0,0.0,0.0,1.0,-2.7905138253965176,0.0,0.0,1.0,90.0,1.6067320996057386,2.4261901999458573,9260.0,0.0,0.0,0.0,0.0,46.0,120.0,-2.9709826327582705,16.881962532627096,17.14139424776107,-2.8769074372669565,-15.27798687897872,0.006119286252713639,0.0,39.74336355279401,299.5489470025419,6.7728576623514405,17.972936820152515,0.0,1.0,0.0,0.0,0.0,0.0,2.0,9260.0,1.0,9260.0,0.0,0.0,0.0,0.0
1596474238196.0,-86.72559,36.16892,40.65696589897709,3.6799999105921484,16.0,1.49,3.0,1.0,1771261441581.0,0.0,18.0,47.0,0.0909370705485344,-1.6039756536483765,-0.0,0.0,0.0,65.62438201904297,0.008356297427448584,-0.1635599888095991,1156.0,10.0,0.0,357.6,62.77777777777778,70.0,0.0,0.0,0.0,0.0,67.62336374399598,59.674694932397756,40.90964509089136,-19.449197537270873,-10.378207814268537,5.984368477630433,0.0,26.48936623046543,16.607790223226065,0.5984368477630433,40.34180040055705,5.984368477630433,2.3043685670382845,-2.48820563274498,0.003023081926515374,1.0,0.0,0.0,1.0,-2.48820563274498,-19.7484159611524,-9.226670909644852,1.0,75.43422768665218,1.6065514147691276,2.103591732551009,9360.0,0.0,0.0,0.0,0.0,47.0,100.0,-6.451325953168326,30.053184640957728,30.73781894698322,-6.360388882619792,-28.44920898730935,0.0062374160522319045,0.0,40.34180040055705,314.1304424146,10.445698988094426,18.847826544876,0.0,1.0,0.0,0.0,0.0,0.0,2.0,9360.0,1.0,9360.0,0.0,0.0,0.0,0.0
1596474238436.0,-86.72558,36.16892,40.656661098986845,3.7009995797830966,16.0,1.68,3.0,1.0,1771261441813.0,0.0,18.0,48.0,0.10034164786338806,-1.6039756536483765,-0.0,0.0,0.0,65.90363311767578,0.00879531358353607,-0.1635599888095991,1166.0,10.0,0.0,357.6,62.77777777777778,70.0,0.0,0.0,0.0,0.0,68.2218005913784,60.045345211529295,40.90934029090111,-18.850760689888464,-10.007557535136995,2.4934868640933714,1.5443761630480928,35.06374450368415,23.36800574338595,0.7039234970685998,41.04572389762565,2.933014571119166,-0.7679850086639304,-6.680837244243424,-0.017469298381243514,1.0,0.0,0.0,1.0,-6.680837244243424,-137855399189353.33,222575713901530.66,1.0,58.227413889728496,1.6071111796614062,1.5680639119553152,9600.0,0.0,0.0,0.0,0.0,48.0,240.0,-9.464867538280451,41.41109349770926,42.47896399623246,-9.364525890417063,-39.80711784406088,0.00667643220831939,0.0,41.04572389762565,315.0500222613739,9.683964784109074,18.903001335682433,0.0,1.0,0.0,0.0,0.0,0.0,2.0,9600.0,1.0,9600.0,0.0,0.0,0.0,0.0
1596474238576.0,-86.72557,36.16892,40.65513709903561,3.6889997049540892,16.0,1.81,3.0,1.0,1771261441951.0,0.0,18.0,49.0,0.11132509261369705,-1.6039756536483765,-0.0,0.0,0.0,63.390357971191406,0.008981314250708491,-0.1635599888095991,1174.0,10.0,0.0,357.6,63.333333333333336,70.0,0.0,0.0,0.0,0.0,68.8202374387608,60.41599549066084,40.90781629094988,-18.25232384250606,-9.636907256005452,4.274548909874325,2.64750199379673,17.857439558253887,16.812811762407513,0.7039234970685968,41.74964739469424,5.028024979061406,1.3390252741073172,-5.882378618256328,0.005703275899907829,1.0,0.0,0.0,1.0,-5.882378618256328,-1301784522.8165226,2101808240.6097608,1.0,58.22741388157155,1.6078343116572007,1.3141122326642691,9740.0,0.0,0.0,0.0,0.0,49.0,140.0,-7.277211269483083,23.110966506986234,24.229621886189868,-7.165886176869386,-21.506990853337857,0.006862432875491812,0.0,41.74964739469424,318.2434518559038,8.318394880615894,19.09460711135423,0.0,1.0,0.0,0.0,0.0,0.0,2.0,9740.0,1.0,9740.0,0.0,0.0,0.0,0.0
1596474238856.0,-86.72557,36.16893,40.653613099084374,3.7,16.0,1.99,3.0,1.0,1771261442248.0,0.0,18.0,50.0,0.0831015557050705,-1.6039756536483765,-0.0,0.0,0.0,55.99016189575195,0.008953070363401155,-0.1635599888095991,1165.0,10.0,0.0,337.8,63.333333333333336,70.0,0.0,0.0,0.0,0.0,69.41867428576256,60.78664576979238,40.90629229099864,-17.65388699550429,-9.26625697687391,2.137274453577742,1.323750996898365,42.984387586841564,30.519112342139252,0.7039234967449997,42.45357089143924,2.514012488374999,-1.1859875116250014,-2.0541788779169767,0.013672141929783397,1.0,0.0,0.0,1.0,-2.0541788779169767,1301565812.4368832,-2101455196.6130464,1.0,58.22741388157317,1.6061269458101184,0.6274509803921569,10020.0,0.0,0.0,0.0,0.0,50.0,280.0,1.8641698496238908,51.73092373025101,51.7645013422644,-1.7810682939188203,-50.12694807660263,0.006834188988184476,0.0,42.45357089143924,314.86486486486484,1.8245770283141207,18.89189189189189,0.0,1.0,0.0,0.0,0.0,0.0,2.0,10020.0,1.0,10020.0,0.0,0.0,0.0,0.0
1596474238896.0,-86.72556,36.16893,40.649041099230686,3.7449998658882224,16.0,1.99,3.0,1.0,1771261442270.0,0.0,18.0,51.0,0.08623968064785004,-1.6039756536483765,-0.0,0.0,0.0,54.175018310546875,0.008951487850068187,-0.1635599888095991,1162.0,10.0,0.0,326.7,63.333333333333336,70.0,0.0,0.0,0.0,0.0,70.01711113314504,61.157296048923925,40.901720291144954,-17.05545014812182,-8.895606697742368,14.960921184561737,9.266256978288556,54.81847223391203,37.01784451815606,0.7039234970686511,43.15749438850789,17.598087426716276,13.853087560828055,-149.48893165563803,-3.6858688194430265,0.0,0.0,0.0,0.0,0.0,-16.606622512584956,-10.28869654324668,0.0,72.14202493754016,1.6062923706520489,0.4524886877828056,10060.0,0.0,0.0,0.0,0.0,51.0,40.0,3.8117239147351087,65.0938737958725,65.2053804908394,-3.7254842340872587,-63.48989814222412,0.006832606474851508,0.0,43.15749438850789,310.28038494319196,3.2764876627299735,18.616823096591517,0.0,1.0,0.0,0.0,0.0,0.0,2.0,10060.0,1.0,10060.0,0.0,0.0,0.0,0.0
1596474239256.0,-86.72555,36.16893,40.64355469940625,3.992999812243511,15.0,1.84,3.0,1.0,1771261442637.0,0.0,18.0,52.0,0.052524417638778687,-1.6039756536483765,-0.0,0.0,0.0,37.559486389160156,0.008264182716844513,-0.1635599888095991,1075.0,11.0,0.0,215.5,63.333333333333336,70.0,0.0,0.0,0.0,0.0,70.91476640421877,61.157296048923925,40.89623389132052,-16.15779487704809,-8.895606697742368,2.493486864093697,0.0,64.94085933540505,39.367658252157966,0.8976552710737309,44.05514965958162,2.493486864093697,-1.499512948149814,-0.16991008381795564,0.41477505992172237,0.0,0.0,0.0,0.0,0.0,-16.606622512584956,-6.536305088869902,0.0,79.2288999603393,1.6048354158433287,0.3217697335344396,10420.0,0.0,0.0,0.0,0.0,52.0,360.0,-1.585311913156523,75.55476503605188,75.57139494223328,-1.5327874955177443,-73.9507893824035,0.006145301341627833,0.0,44.05514965958162,269.22114964889005,22.85504757562723,16.1532689789334,1.0,1.0,0.0,0.0,0.0,0.0,2.0,10420.0,1.0,10420.0,0.0,0.0,0.0,0.0
1596474239436.0,-86.72554,36.16893,40.638373099572064,3.969000062585496,15.0,1.76,3.0,1.0,1771261442811.0,0.0,18.0,53.0,0.04860175773501396,-1.6039756536483765,-0.0,0.0,0.0,29.600784301757812,0.007622961879773135,-0.1635599888095991,921.0,11.0,0.0,158.4,63.333333333333336,70.0,0.0,0.0,0.0,0.0,71.81242167491186,61.527946328055464,40.89105229148633,-15.260139606354995,-8.524956418610826,4.986973726072749,2.059168217397457,-20.62914119379137,-15.942239095149645,0.9711676551571226,45.02631731473875,5.395375861984014,1.4263757993985182,4.8544029476578086,0.027912850174865358,0.0,0.0,0.0,0.0,0.0,-16.4273414671222,-6.9704949018981734,0.0,53.09813462010425,1.6047118209671385,-0.1809954751131222,10600.0,0.0,0.0,0.0,0.0,53.0,180.0,-6.629506795636046,-25.503070729383964,26.350654204048627,-6.580905037901032,-23.899095075735588,0.005504080504556455,0.0,45.02631731473875,232.04837124644433,38.89179651532935,13.92290227478666,1.0,1.0,0.0,0.0,0.0,0.0,2.0,10600.0,1.0,10600.0,0.0,0.0,0.0,0.0
1596474239596.0,-86.72553,36.16894,40.641725899464774,4.222000143052563,16.0,1.52,3.0,1.0,1771261442971.0,0.0,18.0,54.0,0.021947283297777176,-1.6039756536483765,-0.0,0.0,0.0,22.479841232299805,0.007071610852648774,-0.1635599888095991,927.0,11.0,0.0,114.9,63.333333333333336,70.0,0.0,0.0,0.0,0.0,72.41085852191372,62.26924688631855,40.89440509137904,-14.661702759353139,-7.78365586034774,3.740230293761604,4.633128489144283,59.67474435847996,33.98357452158288,0.9527083381238381,45.97902565286259,5.954427113273988,1.7324269702214252,1.630163189913807,-0.02015149848590001,0.0,0.0,0.0,0.0,0.0,33117148846345.97,-26734799962581.332,0.0,38.9132314265903,1.604125799537209,-0.21870286576168968,10760.0,0.0,0.0,0.0,0.0,54.0,160.0,-16.721241589138497,68.11022609007799,70.13275139564877,-16.69929430584072,-66.50625043642961,0.004952729477432095,0.0,45.97902565286259,219.56418014940343,40.86463801745062,13.173850808964206,1.0,2.0,0.0,0.0,0.0,0.0,2.0,10760.0,1.0,10760.0,0.0,0.0,0.0,0.0
1596474239856.0,-86.72553,36.16895,40.62740029992319,4.328999883769792,16.0,1.6,3.0,1.0,1771261443237.0,0.0,18.0,55.0,0.004707192070782185,-1.6039756536483765,-0.0,0.0,0.0,11.170106887817383,0.006008205398754063,-0.1635599888095991,952.0,11.0,0.0,47.9,63.333333333333336,70.0,0.0,0.0,0.0,0.0,73.0092953689156,63.01054744458163,40.880079491837456,-14.063265912351255,-7.042355302084656,2.301680180776474,2.851155993319556,110.69684068940487,65.92317451446773,0.9527083381238542,46.931733990986444,3.664262838937901,-0.6647370448318912,0.3330834873350029,-0.004988768086841554,0.0,0.0,0.0,0.0,0.0,-12.476908250654606,-8.935192762420684,0.0,50.03414968798796,1.6039825607387157,-0.3795877325289079,11020.0,0.0,0.0,0.0,0.0,55.0,260.0,-14.111177423451887,128.46822985465874,129.2409045552745,-14.106470231381104,-126.86425420101037,0.0038893240235373834,0.0,46.931733990986444,219.9122258166883,23.42054339062591,13.194733549001297,1.0,2.0,0.0,0.0,0.0,0.0,2.0,11020.0,1.0,11020.0,0.0,0.0,0.0,0.0
1596474239896.0,-86.72552,36.16895,40.62465710001097,4.339000151993348,16.0,1.6,3.0,1.0,1771261443272.0,0.0,18.0,56.0,0.010973641648888588,-1.6039756536483765,-0.0,0.0,0.0,8.517207145690918,0.005809143609734107,-0.1635599888095991,942.0,11.0,0.0,36.9,63.333333333333336,70.0,0.0,0.0,0.0,0.0,73.60773221629817,63.38119772371318,40.87733629192524,-13.464829064968677,-6.671705022953113,14.960921184564446,9.266256978288556,149.8264868736893,90.13204988904253,0.7039234970687432,47.63565748805519,17.598087426718582,13.259087274725234,171.93451618511878,4.290035817444594,0.0,0.0,0.0,0.0,0.0,-13.0160014292414,-8.06479486876516,0.0,72.14202493413956,1.6040131914382048,-0.5709976298211585,11060.0,0.0,0.0,0.0,0.0,56.0,40.0,-12.450286183064518,174.07271928313173,174.51739519218188,-12.43931254141563,-172.46874362948336,0.0036902622345174278,0.0,47.63565748805519,217.10070684538758,6.712353038231957,13.026042410723255,0.0,2.0,0.0,0.0,0.0,0.0,2.0,11060.0,1.0,11060.0,0.0,0.0,0.0,0.0
1596474240196.0,-86.72551,36.16895,40.631667499786644,4.579000777848311,16.0,1.61,3.0,1.0,1771261443575.0,0.0,18.0,57.0,-0.014111769385635853,-1.6039756536483765,-0.0,0.0,0.0,-5.166174411773682,0.004181513377304721,-0.1635599888095991,983.0,11.0,0.0,-34.2,63.333333333333336,70.0,0.0,0.0,0.0,0.0,74.50538748775274,63.38119772371318,40.88434669170091,-12.56717379351412,-6.671705022953113,2.9921842381818564,0.0,175.164179719179,104.91921090987347,0.8976552714545569,48.53331275950974,2.9921842381818564,-1.5868165396664544,-0.09315382937722466,-0.5734255667149867,0.0,0.0,0.0,0.0,0.0,0.0,0.0,0.0,90.0,1.6040377300836566,0.2875267754160492,11360.0,0.0,0.0,0.0,0.0,57.0,300.0,-13.333927529440334,203.31663324254376,203.75339745987898,-13.319815760054698,-201.71265758889538,0.0020626320020880416,0.0,48.53331275950974,214.67565691524413,2.4374620657949846,12.880539414914647,0.0,2.0,0.0,0.0,0.0,0.0,2.0,11360.0,1.0,11360.0,0.0,0.0,0.0,0.0
1596474240336.0,-86.7255,36.16895,40.637763499591564,4.57099877511243,16.0,1.63,3.0,1.0,1771261443712.0,0.0,18.0,58.0,0.0007845319923944771,-1.6039756536483765,-0.0,0.0,0.0,-7.67944860458374,0.0034588929249854154,-0.1635599888095991,985.0,11.0,0.0,-44.5,63.333333333333336,70.0,0.0,0.0,0.0,0.0,75.40304275920732,63.38119772371318,40.89044269150583,-11.669518522059528,-6.671705022953113,6.4118233675328025,0.0,157.10696004852795,93.60027263512146,0.8976552714545925,49.43096803096434,6.411823367532803,1.8408245924203737,-0.5096177078088537,-0.0029747419887973504,0.0,0.0,0.0,0.0,0.0,-12.118346157786823,-5.278615175414933,0.0,72.14202495486072,1.6039758455123891,1.982669387513678,11500.0,0.0,0.0,0.0,0.0,58.0,140.0,-13.023292786463132,181.94535483895646,182.4108502871354,-13.022508254470738,-180.34137918530809,0.001340011549768736,0.0,49.43096803096434,215.4890098336928,2.3099622978331396,12.929340590021567,0.0,2.0,0.0,0.0,0.0,0.0,2.0,11500.0,1.0,11500.0,0.0,0.0,0.0,0.0
1596474240476.0,-86.72549,36.16895,40.63562989965984,4.769001403703273,16.0,1.51,3.0,1.0,1771261443856.0,0.0,18.0,59.0,-0.008620045147836208,-1.6039756536483765,-0.0,0.0,0.0,-8.93608570098877,0.0029169208712755005,-0.1635599888095991,1030.0,11.0,0.0,-45.4,63.333333333333336,70.0,0.0,0.0,0.0,0.0,76.00147960697062,63.751848002608945,40.88830909157411,-11.071081674296233,-6.301054744057346,4.274548912594968,2.6475019921126233,210.36744089935576,126.68502139881834,0.7039234972682613,50.1348915282326,5.028024980487581,0.2590235767843083,9.376169614078409,0.07061276658490902,0.0,0.0,0.0,0.0,0.0,-650849688.8161726,1050835380.7115816,0.0,58.2274139060533,1.60399881629479,3.292710749458154,11640.0,0.0,0.0,0.0,0.0,59.0,140.0,-11.41871787267813,244.64549392113952,244.91183069377055,-11.410097827530294,-243.04151826749114,0.0007980394960588211,0.0,50.1348915282326,215.97812892237232,1.0138963374300176,12.95868773534234,0.0,2.0,0.0,0.0,0.0,0.0,2.0,11640.0,1.0,11640.0,0.0,0.0,0.0,0.0
1596474240496.0,-86.72549,36.16896,40.6313626997964,4.74799949931603,16.0,1.63,3.0,1.0,1771261443871.0,0.0,18.0,60.0,-0.007835513912141323,-1.6039756536483765,-0.0,0.0,0.0,-8.796459197998047,0.00284405968128338,-0.1635599888095991,1029.0,11.0,0.0,-45.9,63.333333333333336,70.0,0.0,0.0,0.0,0.0,76.5999164539726,64.12249828150472,40.884041891710666,-10.472644827294262,-5.930404465161579,29.921842350098515,18.532513944788363,224.1985625847152,137.71208686702158,0.7039234966210247,50.83881502485362,35.19617483105124,30.448175331735207,1686.9683874926336,83.87961089392776,0.0,0.0,0.0,0.0,0.0,-12.059002488918038,-4.037567004517813,0.0,50.03414969386955,1.6039947920037034,4.602266245864862,11660.0,0.0,0.0,0.0,0.0,60.0,20.0,-15.7505192196784,261.7551600718822,262.2286076688547,-15.74268370576626,-260.1511844182338,0.0007251783060667006,0.0,50.83881502485362,216.72285351930466,0.8595159821904358,13.00337121115828,0.0,2.0,0.0,0.0,0.0,0.0,2.0,11660.0,1.0,11660.0,0.0,0.0,0.0,0.0
